[

	{
		"id": 1,
		"name": "Tai O Bus Terminus",
		"fileName": "IMG_1384.JPG",
		"description": "This is description,",
		"websiteUri": "www.google.com.hk",
		"address": "Tai O",
		"latitude": 22.2529,
		"longitude": 113.8624
	},
	{
		"id": 2,
		"name": "Tai O Promenade",
		"fileName": "IMG_1386.JPG",
		"description": "This is description,",
		"websiteUri": "www.google.com.hk",
		"address": "Tai O",
		"latitude": 22.2528,
		"longitude": 113.8617
	},
	{
		"id": 3,
		"name": "Tai O New Pier",
		"fileName": "IMG_1387.JPG",
		"description": "This is description,",
		"websiteUri": "www.google.com.hk",
		"address": "Tai O",
		"latitude": 22.2524,
		"longitude": 113.8608
	},
	{
		"id": 4,
		"name": "Tai O Bus Terminus WC",
		"fileName": "IMG_1385.JPG",
		"description": "This is description,",
		"websiteUri": "www.google.com.hk",
		"address": "Tai O",
		"latitude": 22.253,
		"longitude": 113.8623
	},
	{
		"id": 5,
		"name": "Tai O Rural Committee History and Cultural Exhibition",
		"fileName": "IMG_1389.JPG",
		"description": "This is description,",
		"websiteUri": "www.google.com.hk",
		"address": "Tai O",
		"latitude": 22.2535,
		"longitude": 113.862
	},
	{
		"id": 6,
		"name": "Auntie Yan's Tea Cake",
		"fileName": "IMG_1390.JPG",
		"description": "This is description,",
		"websiteUri": "www.google.com.hk",
		"address": "Tai O",
		"latitude": 22.2536,
		"longitude": 113.8621
	},
	{
		"id": 7,
		"name": "Venice Seafood Restaurant",
		"fileName": "image.JPG",
		"description": "This is description,",
		"websiteUri": "www.google.com.hk",
		"address": "Tai O",
		"latitude": 0,
		"longitude": 0
	},
	{
		"id": 8,
		"name": "Tai Chung Bridge",
		"fileName": "IMG_1394.JPG",
		"description": "This is description,",
		"websiteUri": "www.google.com.hk",
		"address": "Tai O",
		"latitude": 22.2539,
		"longitude": 113.8622
	},
	{
		"id": 9,
		"name": "Tai Chung Bridge Public Pier",
		"fileName": "IMG_1393.JPG",
		"description": "This is description,",
		"websiteUri": "www.google.com.hk",
		"address": "Tai O",
		"latitude": 22.2539,
		"longitude": 113.8622
	},
	{
		"id": 10,
		"name": "Fook Mun Lam Restaurant",
		"fileName": "IMG_1396.JPG",
		"description": "This is description,",
		"websiteUri": "www.google.com.hk",
		"address": "Tai O",
		"latitude": 22.2546,
		"longitude": 113.862
	},
	{
		"id": 11,
		"name": "Kwan Ti Temple / Tin Hau Temple",
		"fileName": "picture.jpg",
		"description": "This is description,",
		"websiteUri": "www.google.com.hk",
		"address": "Tai O",
		"latitude": 22.2538,
		"longitude": 113.8696
	},
	{
		"id": 12,
		"name": "Tai O Rural Committee Square",
		"fileName": "picture.jpg",
		"description": "This is description,",
		"websiteUri": "www.google.com.hk",
		"address": "Tai O",
		"latitude": 0,
		"longitude": 0
	},
	{
		"id": 13,
		"name": "Wheel Chair (Rural Committee Square)",
		"fileName": "picture.jpg",
		"description": "This is description,",
		"websiteUri": "www.google.com.hk",
		"address": "Tai O",
		"latitude": 0,
		"longitude": 0
	},
	{
		"id": 14,
		"name": "Wan Shui To Restaurant",
		"fileName": "picture.jpg",
		"description": "This is description,",
		"websiteUri": "www.google.com.hk",
		"address": "Tai O",
		"latitude": 0,
		"longitude": 0
	},
	{
		"id": 15,
		"name": "Tokyo Store",
		"fileName": "picture.jpg",
		"description": "This is description,",
		"websiteUri": "www.google.com.hk",
		"address": "Tai O",
		"latitude": 0,
		"longitude": 0
	},
	{
		"id": 16,
		"name": "Tokyo Pier",
		"fileName": "picture.jpg",
		"description": "This is description,",
		"websiteUri": "www.google.com.hk",
		"address": "Tai O",
		"latitude": 0,
		"longitude": 0
	},
	{
		"id": 17,
		"name": "MEOW",
		"fileName": "IMG_0553.JPG",
		"description": "This is description,",
		"websiteUri": "www.google.com.hk",
		"address": "Tai O",
		"latitude": 22.2549,
		"longitude": 113.8631
	},
	{
		"id": 18,
		"name": "Wheel Chair (Kat Hing Front Street)",
		"fileName": "IMG_0551.JPG",
		"description": "This is description,",
		"websiteUri": "www.google.com.hk",
		"address": "Tai O",
		"latitude": 22.2541,
		"longitude": 113.8625
	},
	{
		"id": 19,
		"name": "Sun Kee Bridge",
		"fileName": "picture.jpg",
		"description": "This is description,",
		"websiteUri": "www.google.com.hk",
		"address": "Tai O",
		"latitude": 0,
		"longitude": 0
	},
	{
		"id": 20,
		"name": "Sun Kee Bridge (Sun Kee Tsuen)",
		"fileName": "picture.jpg",
		"description": "This is description,",
		"websiteUri": "www.google.com.hk",
		"address": "Tai O",
		"latitude": 0,
		"longitude": 0
	},
	{
		"id": 21,
		"name": "Stilt House (Aunite Ping)",
		"fileName": "picture.jpg",
		"description": "This is description,",
		"websiteUri": "www.google.com.hk",
		"address": "Tai O",
		"latitude": 0,
		"longitude": 0
	},
	{
		"id": 22,
		"name": "Salt Industry Exhibition Hall",
		"fileName": "picture.jpg",
		"description": "This is description,",
		"websiteUri": "www.google.com.hk",
		"address": "Tai O",
		"latitude": 0,
		"longitude": 0
	},
	{
		"id": 23,
		"name": "Water Gate (Sun Kee Tsuen)",
		"fileName": "picture.jpg",
		"description": "This is description,",
		"websiteUri": "www.google.com.hk",
		"address": "Tai O",
		"latitude": 0,
		"longitude": 0
	},
	{
		"id": 24,
		"name": "CHINESE CHARACTERS",
		"fileName": "picture.jpg",
		"description": "This is description,",
		"websiteUri": "www.google.com.hk",
		"address": "Tai O",
		"latitude": 0,
		"longitude": 0
	},
	{
		"id": 25,
		"name": "Tai O Convenience House",
		"fileName": "picture.jpg",
		"description": "This is description,",
		"websiteUri": "www.google.com.hk",
		"address": "Tai O",
		"latitude": 0,
		"longitude": 0
	},
	{
		"id": 26,
		"name": "Tai O Sam Lee Shipyard",
		"fileName": "picture.jpg",
		"description": "This is description,",
		"websiteUri": "www.google.com.hk",
		"address": "Tai O",
		"latitude": 0,
		"longitude": 0
	},
	{
		"id": 27,
		"name": "Lung Yam Temple",
		"fileName": "picture.jpg",
		"description": "This is description,",
		"websiteUri": "www.google.com.hk",
		"address": "Tai O",
		"latitude": 22.2538,
		"longitude": 113.8696
	},
	{
		"id": 28,
		"name": "Wheel Chair(Lung Yam Temple)",
		"fileName": "picture.jpg",
		"description": "This is description,",
		"websiteUri": "www.google.com.hk",
		"address": "Tai O",
		"latitude": 22.2534,
		"longitude": 113.8696
	},
	{
		"id": 29,
		"name": "Hwa Kong Temple",
		"fileName": "picture.jpg",
		"description": "This is description,",
		"websiteUri": "www.google.com.hk",
		"address": "Tai O",
		"latitude": 22.2523,
		"longitude": 113.8696
	},
	{
		"id": 30,
		"name": "Wan Han Bridge",
		"fileName": "picture.jpg",
		"description": "This is description,",
		"websiteUri": "www.google.com.hk",
		"address": "Tai O",
		"latitude": 22.2534,
		"longitude": 113.8683
	},
	{
		"id": 31,
		"name": "Tin Lee Court",
		"fileName": "IMG_0528.JPG",
		"description": "This is description,",
		"websiteUri": "www.google.com.hk",
		"address": "Tai O",
		"latitude": 222531,
		"longitude": 113.8664
	},
	{
		"id": 32,
		"name": "Lung Tin Estate WC",
		"fileName": "picture.jpg",
		"description": "This is description,",
		"websiteUri": "www.google.com.hk",
		"address": "Tai O",
		"latitude": 0,
		"longitude": 0
	},
	{
		"id": 33,
		"name": "Tai O Community Work Office",
		"fileName": "picture.jpg",
		"description": "This is description,",
		"websiteUri": "www.google.com.hk",
		"address": "Tai O",
		"latitude": 0,
		"longitude": 0
	},
	{
		"id": 34,
		"name": "Yung Shu Tau",
		"fileName": "picture.jpg",
		"description": "This is description,",
		"websiteUri": "www.google.com.hk",
		"address": "Tai O",
		"latitude": 0,
		"longitude": 0
	},
	{
		"id": 35,
		"name": "Tai O Cultural And Ecological Integrated Resource Centre",
		"fileName": "picture.jpg",
		"description": "This is description,",
		"websiteUri": "www.google.com.hk",
		"address": "Tai O",
		"latitude": 0,
		"longitude": 0
	},
	{
		"id": 36,
		"name": "YWCA",
		"fileName": "36_tai_o_ywca.png",
		"description": "YWCA Tai O Cultural and Ecological Integrated Resource Centre",
		"websiteUri": "www.google.com.hk",
		"address": "Tai O",
		"latitude": 22.2542393,
		"longitude": 113.8677486
	},
	{
		"id": 37,
		"name": "Empty",
		"fileName": "photo.jpg",
		"description": "YWCA Tai O Cultural and Ecological Integrated Resource Centre",
		"websiteUri": "www.google.com.hk",
		"address": "Tai O",
		"latitude": 22.2542393,
		"longitude": 113.8677486
	},
	{
		"id": 38,
		"name": "Tiger Pier",
		"fileName": "38_tiger_pier.png",
		"description": "This is a pier",
		"websiteUri": "www.google.com.hk",
		"address": "Tai O",
		"latitude": 22.2535116,
		"longitude": 113.861336
	}
]
